[
	{
		"name": "Кудрово",
		"coord": {
			"lat": 59.907223,
			"lon": 30.505833
		}
	},
	{
		"name": "Москва",
		"coord": {
			"lat": 55.75222,
			"lon": 37.615555
		}
	},
	{
		"name": "Xuddur",
		"coord": {
			"lat": 4.12129,
			"lon": 43.88945
		}
	},
	{
		"name": "Kahrīz",
		"coord": {
			"lat": 34.383801,
			"lon": 47.055302
		}
	},
	{
		"name": "Владивосток",
		"coord": {
			"lat": 43.105621,
			"lon": 131.873535
		}
	}
]