[
	{
		"name": "Кудрово",
		"country": "Российская Федерация",
		"coord": {
			"lat": 59.907223,
			"lon": 30.505833
		}
	},
	{
		"name": "Чита",
		"country": "Российская Федерация",
		"coord": {
			"lat": 52.033329,
			"lon": 113.550003
		}
	},
	{
		"name": "Татарстан",
		"country": "Российская Федерация",
		"coord": {
			"lat": 55.333332,
			"lon": 51.0
		}
	},
	{
		"name": "Finta Mare",
		"country": "Румыния",
		"coord": {
			"lat": 44.799999,
			"lon": 25.799999
		}
	},
	{
		"name": "Toronto",
		"country": "Канада",
		"coord": {
			"lat": 43.700111,
			"lon": -79.416298
		}
	},
	{
		"name": "New York City",
		"country": "Соединённые штаты",
		"coord": {
			"lat": 40.714272,
			"lon": -74.005966
		}
	}
]